{
  "regeocode_data": [
    {
      "location": "116.421555,39.883789",
      "formatted_address": "北京市朝阳区南京路1号",
      "address_components": {
        "province": "北京市",
        "city": "北京市",
        "district": "朝阳区",
        "street": "南京路1号",
        "street_number": ""
      },
      "pois": [
        {
          "id": "B0FF0000",
          "name": "银行店",
          "type": "银行",
          "address": "北京市朝阳区中山路50号",
          "coordinates": "116.350578,39.868670",
          "distance": "526米"
        },
        {
          "id": "B0FF0001",
          "name": "银行中心",
          "type": "银行",
          "address": "北京市西城区长安街100号",
          "coordinates": "116.367284,39.924288",
          "distance": "1166米"
        },
        {
          "id": "B0FF0002",
          "name": "景点广场",
          "type": "景点",
          "address": "北京市朝阳区人民路100号",
          "coordinates": "116.375219,39.946230",
          "distance": "1604米"
        }
      ]
    },
    {
      "location": "121.465961,31.208187",
      "formatted_address": "上海市浦东新区南京路25号",
      "address_components": {
        "province": "上海市",
        "city": "上海市",
        "district": "浦东新区",
        "street": "南京路25号",
        "street_number": ""
      },
      "pois": [
        {
          "id": "B0FF0000",
          "name": "餐饮店",
          "type": "餐饮",
          "address": "上海市黄浦区人民路1号",
          "coordinates": "121.459598,31.214796",
          "distance": "591米"
        },
        {
          "id": "B0FF0001",
          "name": "餐饮中心",
          "type": "餐饮",
          "address": "上海市浦东新区人民路100号",
          "coordinates": "121.436183,31.272630",
          "distance": "211米"
        },
        {
          "id": "B0FF0002",
          "name": "银行广场",
          "type": "银行",
          "address": "上海市徐汇区中山路25号",
          "coordinates": "121.481435,31.250857",
          "distance": "143米"
        }
      ]
    },
    {
      "location": "121.522222,31.265932",
      "formatted_address": "上海市徐汇区长安街50号",
      "address_components": {
        "province": "上海市",
        "city": "上海市",
        "district": "徐汇区",
        "street": "长安街50号",
        "street_number": ""
      },
      "pois": [
        {
          "id": "B0FF0000",
          "name": "酒店店",
          "type": "酒店",
          "address": "上海市徐汇区解放路10号",
          "coordinates": "121.460718,31.201351",
          "distance": "596米"
        },
        {
          "id": "B0FF0001",
          "name": "餐饮中心",
          "type": "餐饮",
          "address": "上海市浦东新区南京路100号",
          "coordinates": "121.496613,31.196740",
          "distance": "827米"
        },
        {
          "id": "B0FF0002",
          "name": "酒店广场",
          "type": "酒店",
          "address": "上海市浦东新区中山路10号",
          "coordinates": "121.492161,31.264685",
          "distance": "1639米"
        }
      ]
    },
    {
      "location": "116.429580,39.939805",
      "formatted_address": "北京市朝阳区人民路25号",
      "address_components": {
        "province": "北京市",
        "city": "北京市",
        "district": "朝阳区",
        "street": "人民路25号",
        "street_number": ""
      },
      "pois": [
        {
          "id": "B0FF0000",
          "name": "餐饮店",
          "type": "餐饮",
          "address": "北京市朝阳区中山路25号",
          "coordinates": "116.368663,39.909223",
          "distance": "1861米"
        },
        {
          "id": "B0FF0001",
          "name": "景点中心",
          "type": "景点",
          "address": "北京市朝阳区解放路10号",
          "coordinates": "116.372063,39.915437",
          "distance": "588米"
        },
        {
          "id": "B0FF0002",
          "name": "银行广场",
          "type": "银行",
          "address": "北京市海淀区中山路50号",
          "coordinates": "116.383600,39.959033",
          "distance": "333米"
        }
      ]
    },
    {
      "location": "104.025591,30.527512",
      "formatted_address": "成都市青羊区长安街10号",
      "address_components": {
        "province": "成都省",
        "city": "成都市",
        "district": "青羊区",
        "street": "长安街10号",
        "street_number": ""
      },
      "pois": [
        {
          "id": "B0FF0000",
          "name": "购物店",
          "type": "购物",
          "address": "成都市武侯区人民路100号",
          "coordinates": "104.022853,30.560962",
          "distance": "1008米"
        },
        {
          "id": "B0FF0001",
          "name": "银行中心",
          "type": "银行",
          "address": "成都市青羊区中山路1号",
          "coordinates": "104.084528,30.534255",
          "distance": "1862米"
        },
        {
          "id": "B0FF0002",
          "name": "银行广场",
          "type": "银行",
          "address": "成都市青羊区解放路1号",
          "coordinates": "104.045850,30.538616",
          "distance": "56米"
        }
      ]
    },
    {
      "location": "113.290596,23.129868",
      "formatted_address": "广州市海珠区长安街25号",
      "address_components": {
        "province": "广州省",
        "city": "广州市",
        "district": "海珠区",
        "street": "长安街25号",
        "street_number": ""
      },
      "pois": [
        {
          "id": "B0FF0000",
          "name": "银行店",
          "type": "银行",
          "address": "广州市海珠区南京路10号",
          "coordinates": "113.251791,23.095255",
          "distance": "1644米"
        },
        {
          "id": "B0FF0001",
          "name": "银行中心",
          "type": "银行",
          "address": "广州市天河区中山路25号",
          "coordinates": "113.263261,23.090287",
          "distance": "793米"
        },
        {
          "id": "B0FF0002",
          "name": "酒店广场",
          "type": "酒店",
          "address": "广州市天河区长安街10号",
          "coordinates": "113.302201,23.173795",
          "distance": "225米"
        }
      ]
    },
    {
      "location": "114.105698,22.546371",
      "formatted_address": "深圳市福田区南京路10号",
      "address_components": {
        "province": "深圳省",
        "city": "深圳市",
        "district": "福田区",
        "street": "南京路10号",
        "street_number": ""
      },
      "pois": [
        {
          "id": "B0FF0000",
          "name": "景点店",
          "type": "景点",
          "address": "深圳市南山区南京路25号",
          "coordinates": "114.060667,22.553759",
          "distance": "483米"
        },
        {
          "id": "B0FF0001",
          "name": "银行中心",
          "type": "银行",
          "address": "深圳市南山区南京路25号",
          "coordinates": "114.047799,22.560269",
          "distance": "814米"
        },
        {
          "id": "B0FF0002",
          "name": "景点广场",
          "type": "景点",
          "address": "深圳市南山区人民路1号",
          "coordinates": "114.032691,22.499503",
          "distance": "93米"
        }
      ]
    },
    {
      "location": "104.039511,30.544822",
      "formatted_address": "成都市武侯区长安街1号",
      "address_components": {
        "province": "成都省",
        "city": "成都市",
        "district": "武侯区",
        "street": "长安街1号",
        "street_number": ""
      },
      "pois": [
        {
          "id": "B0FF0000",
          "name": "购物店",
          "type": "购物",
          "address": "成都市锦江区长安街25号",
          "coordinates": "104.023586,30.546600",
          "distance": "1420米"
        },
        {
          "id": "B0FF0001",
          "name": "景点中心",
          "type": "景点",
          "address": "成都市锦江区中山路10号",
          "coordinates": "104.088835,30.611038",
          "distance": "1230米"
        },
        {
          "id": "B0FF0002",
          "name": "景点广场",
          "type": "景点",
          "address": "成都市锦江区人民路50号",
          "coordinates": "104.035541,30.532493",
          "distance": "932米"
        }
      ]
    },
    {
      "location": "113.255510,23.165484",
      "formatted_address": "广州市越秀区长安街1号",
      "address_components": {
        "province": "广州省",
        "city": "广州市",
        "district": "越秀区",
        "street": "长安街1号",
        "street_number": ""
      },
      "pois": [
        {
          "id": "B0FF0000",
          "name": "餐饮店",
          "type": "餐饮",
          "address": "广州市越秀区解放路1号",
          "coordinates": "113.239266,23.098121",
          "distance": "968米"
        },
        {
          "id": "B0FF0001",
          "name": "购物中心",
          "type": "购物",
          "address": "广州市越秀区南京路25号",
          "coordinates": "113.260663,23.166549",
          "distance": "204米"
        },
        {
          "id": "B0FF0002",
          "name": "景点广场",
          "type": "景点",
          "address": "广州市海珠区长安街1号",
          "coordinates": "113.279614,23.133159",
          "distance": "80米"
        }
      ]
    },
    {
      "location": "116.364031,39.907864",
      "formatted_address": "北京市朝阳区南京路50号",
      "address_components": {
        "province": "北京市",
        "city": "北京市",
        "district": "朝阳区",
        "street": "南京路50号",
        "street_number": ""
      },
      "pois": [
        {
          "id": "B0FF0000",
          "name": "餐饮店",
          "type": "餐饮",
          "address": "北京市朝阳区人民路1号",
          "coordinates": "116.445931,39.885820",
          "distance": "1655米"
        },
        {
          "id": "B0FF0001",
          "name": "景点中心",
          "type": "景点",
          "address": "北京市海淀区人民路100号",
          "coordinates": "116.413587,39.907967",
          "distance": "438米"
        },
        {
          "id": "B0FF0002",
          "name": "酒店广场",
          "type": "酒店",
          "address": "北京市朝阳区长安街100号",
          "coordinates": "116.420974,39.865396",
          "distance": "692米"
        }
      ]
    }
  ],
  "geocoding_data": [
    {
      "address": "北京市朝阳区中山路50号",
      "city": "北京市",
      "coordinates": "116.397685,39.944572",
      "formatted_address": "北京市朝阳区中山路50号"
    },
    {
      "address": "上海市黄浦区中山路1号",
      "city": "上海市",
      "coordinates": "121.508834,31.187252",
      "formatted_address": "上海市黄浦区中山路1号"
    },
    {
      "address": "北京市西城区南京路50号",
      "city": "北京市",
      "coordinates": "116.359389,39.948329",
      "formatted_address": "北京市西城区南京路50号"
    },
    {
      "address": "上海市浦东新区中山路1号",
      "city": "上海市",
      "coordinates": "121.485638,31.222322",
      "formatted_address": "上海市浦东新区中山路1号"
    },
    {
      "address": "成都市武侯区中山路25号",
      "city": "成都市",
      "coordinates": "104.109971,30.543226",
      "formatted_address": "成都市武侯区中山路25号"
    },
    {
      "address": "广州市天河区解放路50号",
      "city": "广州市",
      "coordinates": "113.227488,23.143650",
      "formatted_address": "广州市天河区解放路50号"
    },
    {
      "address": "深圳市罗湖区长安街1号",
      "city": "深圳市",
      "coordinates": "114.053729,22.592945",
      "formatted_address": "深圳市罗湖区长安街1号"
    },
    {
      "address": "北京市朝阳区中山路10号",
      "city": "北京市",
      "coordinates": "116.397988,39.872546",
      "formatted_address": "北京市朝阳区中山路10号"
    },
    {
      "address": "广州市天河区南京路25号",
      "city": "广州市",
      "coordinates": "113.242899,23.122918",
      "formatted_address": "广州市天河区南京路25号"
    },
    {
      "address": "成都市武侯区解放路100号",
      "city": "成都市",
      "coordinates": "104.114885,30.603510",
      "formatted_address": "成都市武侯区解放路100号"
    }
  ],
  "ip_location_data": [
    {
      "ip": "202.96.153.53",
      "province": "成都省",
      "city": "成都市",
      "district": "锦江区",
      "coordinates": "104.110393,30.536229"
    },
    {
      "ip": "202.96.79.139",
      "province": "北京市",
      "city": "北京市",
      "district": "朝阳区",
      "coordinates": "116.375576,39.880363"
    },
    {
      "ip": "116.228.250.128",
      "province": "广州省",
      "city": "广州市",
      "district": "天河区",
      "coordinates": "113.304934,23.163710"
    },
    {
      "ip": "180.168.141.22",
      "province": "北京市",
      "city": "北京市",
      "district": "西城区",
      "coordinates": "116.347755,39.936412"
    },
    {
      "ip": "180.168.218.4",
      "province": "广州省",
      "city": "广州市",
      "district": "天河区",
      "coordinates": "113.225587,23.173605"
    }
  ],
  "weather_data": [
    {
      "city": "上海市",
      "weather": "阵雨",
      "temperature": "6℃",
      "humidity": "83%",
      "wind_direction": "东风",
      "wind_power": "5级"
    },
    {
      "city": "成都市",
      "weather": "多云",
      "temperature": "18℃",
      "humidity": "38%",
      "wind_direction": "北风",
      "wind_power": "3级"
    },
    {
      "city": "广州市",
      "weather": "晴",
      "temperature": "33℃",
      "humidity": "52%",
      "wind_direction": "南风",
      "wind_power": "2级"
    },
    {
      "city": "北京市",
      "weather": "阴",
      "temperature": "29℃",
      "humidity": "65%",
      "wind_direction": "西风",
      "wind_power": "5级"
    },
    {
      "city": "上海市",
      "weather": "多云",
      "temperature": "32℃",
      "humidity": "40%",
      "wind_direction": "南风",
      "wind_power": "4级"
    },
    {
      "city": "北京市",
      "weather": "多云",
      "temperature": "28℃",
      "humidity": "89%",
      "wind_direction": "东风",
      "wind_power": "4级"
    },
    {
      "city": "上海市",
      "weather": "阴",
      "temperature": "10℃",
      "humidity": "80%",
      "wind_direction": "北风",
      "wind_power": "4级"
    },
    {
      "city": "北京市",
      "weather": "小雨",
      "temperature": "12℃",
      "humidity": "42%",
      "wind_direction": "西风",
      "wind_power": "3级"
    }
  ],
  "bicycle_routes_by_address": [
    {
      "distance": "6378米",
      "duration": "31分钟",
      "steps": [
        {
          "instruction": "沿自行车道骑行242米",
          "distance": "135米",
          "duration": "6分钟"
        },
        {
          "instruction": "沿自行车道骑行279米",
          "distance": "428米",
          "duration": "10分钟"
        }
      ],
      "origin": "广州市天河区南京路1号",
      "destination": "广州市海珠区南京路50号"
    },
    {
      "distance": "3925米",
      "duration": "19分钟",
      "steps": [
        {
          "instruction": "沿自行车道骑行397米",
          "distance": "235米",
          "duration": "2分钟"
        },
        {
          "instruction": "沿自行车道骑行155米",
          "distance": "405米",
          "duration": "8分钟"
        }
      ],
      "origin": "深圳市南山区中山路25号",
      "destination": "深圳市福田区长安街25号"
    },
    {
      "distance": "7311米",
      "duration": "36分钟",
      "steps": [
        {
          "instruction": "沿自行车道骑行395米",
          "distance": "197米",
          "duration": "6分钟"
        },
        {
          "instruction": "沿自行车道骑行122米",
          "distance": "462米",
          "duration": "8分钟"
        }
      ],
      "origin": "广州市海珠区解放路50号",
      "destination": "广州市海珠区中山路1号"
    },
    {
      "distance": "6409米",
      "duration": "32分钟",
      "steps": [
        {
          "instruction": "沿自行车道骑行419米",
          "distance": "260米",
          "duration": "3分钟"
        },
        {
          "instruction": "沿自行车道骑行468米",
          "distance": "253米",
          "duration": "10分钟"
        }
      ],
      "origin": "北京市西城区中山路10号",
      "destination": "北京市海淀区人民路1号"
    },
    {
      "distance": "3085米",
      "duration": "15分钟",
      "steps": [
        {
          "instruction": "沿自行车道骑行198米",
          "distance": "315米",
          "duration": "8分钟"
        },
        {
          "instruction": "沿自行车道骑行446米",
          "distance": "483米",
          "duration": "4分钟"
        }
      ],
      "origin": "广州市海珠区人民路25号",
      "destination": "广州市越秀区解放路100号"
    }
  ],
  "bicycle_routes_by_coordinates": [
    {
      "distance": "4443米",
      "duration": "22分钟",
      "steps": [
        {
          "instruction": "沿自行车道骑行320米",
          "distance": "396米",
          "duration": "7分钟"
        },
        {
          "instruction": "沿自行车道骑行338米",
          "distance": "326米",
          "duration": "9分钟"
        }
      ],
      "origin": "104.073411,30.563408",
      "destination": "104.099873,30.553187"
    },
    {
      "distance": "2389米",
      "duration": "11分钟",
      "steps": [
        {
          "instruction": "沿自行车道骑行245米",
          "distance": "363米",
          "duration": "7分钟"
        },
        {
          "instruction": "沿自行车道骑行147米",
          "distance": "484米",
          "duration": "5分钟"
        }
      ],
      "origin": "121.474817,31.259774",
      "destination": "121.519683,31.253996"
    },
    {
      "distance": "8784米",
      "duration": "43分钟",
      "steps": [
        {
          "instruction": "沿自行车道骑行412米",
          "distance": "493米",
          "duration": "3分钟"
        },
        {
          "instruction": "沿自行车道骑行333米",
          "distance": "312米",
          "duration": "5分钟"
        }
      ],
      "origin": "113.236864,23.099013",
      "destination": "113.216843,23.103584"
    },
    {
      "distance": "2746米",
      "duration": "13分钟",
      "steps": [
        {
          "instruction": "沿自行车道骑行498米",
          "distance": "317米",
          "duration": "5分钟"
        },
        {
          "instruction": "沿自行车道骑行190米",
          "distance": "456米",
          "duration": "10分钟"
        }
      ],
      "origin": "114.057338,22.517498",
      "destination": "114.073506,22.493654"
    },
    {
      "distance": "8612米",
      "duration": "43分钟",
      "steps": [
        {
          "instruction": "沿自行车道骑行441米",
          "distance": "371米",
          "duration": "10分钟"
        },
        {
          "instruction": "沿自行车道骑行404米",
          "distance": "262米",
          "duration": "9分钟"
        }
      ],
      "origin": "114.012922,22.518020",
      "destination": "114.092734,22.538746"
    }
  ],
  "walking_routes_by_address": [
    {
      "distance": "8777米",
      "duration": "43分钟",
      "steps": [
        {
          "instruction": "沿道路步行165米",
          "distance": "116米",
          "duration": "2分钟"
        },
        {
          "instruction": "沿道路步行120米",
          "distance": "183米",
          "duration": "4分钟"
        },
        {
          "instruction": "沿道路步行111米",
          "distance": "120米",
          "duration": "4分钟"
        }
      ],
      "origin": "成都市武侯区中山路50号",
      "destination": "成都市武侯区人民路10号"
    },
    {
      "distance": "9849米",
      "duration": "49分钟",
      "steps": [
        {
          "instruction": "沿道路步行70米",
          "distance": "85米",
          "duration": "2分钟"
        },
        {
          "instruction": "沿道路步行109米",
          "distance": "148米",
          "duration": "2分钟"
        },
        {
          "instruction": "沿道路步行104米",
          "distance": "66米",
          "duration": "4分钟"
        }
      ],
      "origin": "北京市西城区解放路10号",
      "destination": "北京市海淀区解放路25号"
    },
    {
      "distance": "7883米",
      "duration": "39分钟",
      "steps": [
        {
          "instruction": "沿道路步行149米",
          "distance": "199米",
          "duration": "1分钟"
        },
        {
          "instruction": "沿道路步行197米",
          "distance": "147米",
          "duration": "4分钟"
        },
        {
          "instruction": "沿道路步行51米",
          "distance": "140米",
          "duration": "3分钟"
        }
      ],
      "origin": "深圳市罗湖区中山路50号",
      "destination": "深圳市罗湖区长安街10号"
    },
    {
      "distance": "4595米",
      "duration": "22分钟",
      "steps": [
        {
          "instruction": "沿道路步行119米",
          "distance": "161米",
          "duration": "4分钟"
        },
        {
          "instruction": "沿道路步行57米",
          "distance": "149米",
          "duration": "3分钟"
        },
        {
          "instruction": "沿道路步行153米",
          "distance": "92米",
          "duration": "4分钟"
        }
      ],
      "origin": "深圳市罗湖区中山路100号",
      "destination": "深圳市南山区南京路50号"
    },
    {
      "distance": "1444米",
      "duration": "7分钟",
      "steps": [
        {
          "instruction": "沿道路步行71米",
          "distance": "159米",
          "duration": "2分钟"
        },
        {
          "instruction": "沿道路步行168米",
          "distance": "96米",
          "duration": "1分钟"
        },
        {
          "instruction": "沿道路步行116米",
          "distance": "147米",
          "duration": "3分钟"
        }
      ],
      "origin": "上海市浦东新区中山路1号",
      "destination": "上海市徐汇区中山路100号"
    }
  ],
  "walking_routes_by_coordinates": [
    {
      "distance": "7906米",
      "duration": "39分钟",
      "steps": [
        {
          "instruction": "沿道路步行114米",
          "distance": "70米",
          "duration": "4分钟"
        },
        {
          "instruction": "沿道路步行54米",
          "distance": "188米",
          "duration": "1分钟"
        },
        {
          "instruction": "沿道路步行139米",
          "distance": "107米",
          "duration": "1分钟"
        }
      ],
      "origin": "121.469170,31.214150",
      "destination": "121.511664,31.208226"
    },
    {
      "distance": "3496米",
      "duration": "17分钟",
      "steps": [
        {
          "instruction": "沿道路步行111米",
          "distance": "82米",
          "duration": "4分钟"
        },
        {
          "instruction": "沿道路步行79米",
          "distance": "194米",
          "duration": "2分钟"
        },
        {
          "instruction": "沿道路步行169米",
          "distance": "115米",
          "duration": "3分钟"
        }
      ],
      "origin": "116.422823,39.954261",
      "destination": "116.367336,39.861338"
    },
    {
      "distance": "3683米",
      "duration": "18分钟",
      "steps": [
        {
          "instruction": "沿道路步行129米",
          "distance": "77米",
          "duration": "5分钟"
        },
        {
          "instruction": "沿道路步行56米",
          "distance": "129米",
          "duration": "5分钟"
        },
        {
          "instruction": "沿道路步行146米",
          "distance": "151米",
          "duration": "2分钟"
        }
      ],
      "origin": "121.484289,31.276773",
      "destination": "121.495536,31.258179"
    },
    {
      "distance": "5941米",
      "duration": "29分钟",
      "steps": [
        {
          "instruction": "沿道路步行80米",
          "distance": "194米",
          "duration": "1分钟"
        },
        {
          "instruction": "沿道路步行138米",
          "distance": "186米",
          "duration": "4分钟"
        },
        {
          "instruction": "沿道路步行144米",
          "distance": "67米",
          "duration": "5分钟"
        }
      ],
      "origin": "116.406610,39.942357",
      "destination": "116.371685,39.929019"
    },
    {
      "distance": "6934米",
      "duration": "34分钟",
      "steps": [
        {
          "instruction": "沿道路步行167米",
          "distance": "89米",
          "duration": "4分钟"
        },
        {
          "instruction": "沿道路步行95米",
          "distance": "183米",
          "duration": "3分钟"
        },
        {
          "instruction": "沿道路步行187米",
          "distance": "173米",
          "duration": "4分钟"
        }
      ],
      "origin": "113.215665,23.121106",
      "destination": "113.263420,23.122452"
    }
  ],
  "driving_routes_by_address": [
    {
      "distance": "5569米",
      "duration": "27分钟",
      "steps": [
        {
          "instruction": "沿道路行驶1423米",
          "distance": "999米",
          "duration": "8分钟"
        },
        {
          "instruction": "沿道路行驶1667米",
          "distance": "1749米",
          "duration": "7分钟"
        },
        {
          "instruction": "沿道路行驶1188米",
          "distance": "558米",
          "duration": "8分钟"
        },
        {
          "instruction": "沿道路行驶1165米",
          "distance": "872米",
          "duration": "8分钟"
        }
      ],
      "origin": "深圳市南山区中山路25号",
      "destination": "深圳市罗湖区南京路1号"
    },
    {
      "distance": "1166米",
      "duration": "5分钟",
      "steps": [
        {
          "instruction": "沿道路行驶1558米",
          "distance": "891米",
          "duration": "2分钟"
        },
        {
          "instruction": "沿道路行驶994米",
          "distance": "1974米",
          "duration": "7分钟"
        },
        {
          "instruction": "沿道路行驶1500米",
          "distance": "1637米",
          "duration": "4分钟"
        },
        {
          "instruction": "沿道路行驶1914米",
          "distance": "1475米",
          "duration": "8分钟"
        }
      ],
      "origin": "上海市徐汇区解放路25号",
      "destination": "上海市徐汇区中山路25号"
    },
    {
      "distance": "6016米",
      "duration": "30分钟",
      "steps": [
        {
          "instruction": "沿道路行驶1859米",
          "distance": "1691米",
          "duration": "6分钟"
        },
        {
          "instruction": "沿道路行驶1469米",
          "distance": "1633米",
          "duration": "6分钟"
        },
        {
          "instruction": "沿道路行驶1371米",
          "distance": "1627米",
          "duration": "6分钟"
        },
        {
          "instruction": "沿道路行驶1220米",
          "distance": "1939米",
          "duration": "8分钟"
        }
      ],
      "origin": "深圳市福田区长安街25号",
      "destination": "深圳市福田区人民路10号"
    },
    {
      "distance": "2958米",
      "duration": "14分钟",
      "steps": [
        {
          "instruction": "沿道路行驶1597米",
          "distance": "1913米",
          "duration": "3分钟"
        },
        {
          "instruction": "沿道路行驶892米",
          "distance": "943米",
          "duration": "8分钟"
        },
        {
          "instruction": "沿道路行驶1066米",
          "distance": "1983米",
          "duration": "5分钟"
        },
        {
          "instruction": "沿道路行驶705米",
          "distance": "897米",
          "duration": "5分钟"
        }
      ],
      "origin": "广州市越秀区解放路10号",
      "destination": "广州市天河区南京路25号"
    },
    {
      "distance": "5494米",
      "duration": "27分钟",
      "steps": [
        {
          "instruction": "沿道路行驶593米",
          "distance": "611米",
          "duration": "5分钟"
        },
        {
          "instruction": "沿道路行驶1928米",
          "distance": "758米",
          "duration": "8分钟"
        },
        {
          "instruction": "沿道路行驶710米",
          "distance": "525米",
          "duration": "5分钟"
        },
        {
          "instruction": "沿道路行驶1461米",
          "distance": "1480米",
          "duration": "8分钟"
        }
      ],
      "origin": "上海市徐汇区南京路25号",
      "destination": "上海市黄浦区中山路10号"
    }
  ],
  "driving_routes_by_coordinates": [
    {
      "distance": "2070米",
      "duration": "10分钟",
      "steps": [
        {
          "instruction": "沿道路行驶1320米",
          "distance": "1507米",
          "duration": "2分钟"
        },
        {
          "instruction": "沿道路行驶1681米",
          "distance": "1789米",
          "duration": "1分钟"
        },
        {
          "instruction": "沿道路行驶810米",
          "distance": "805米",
          "duration": "5分钟"
        },
        {
          "instruction": "沿道路行驶674米",
          "distance": "1008米",
          "duration": "2分钟"
        }
      ],
      "origin": "113.232836,23.084238",
      "destination": "113.308506,23.126873"
    },
    {
      "distance": "9561米",
      "duration": "47分钟",
      "steps": [
        {
          "instruction": "沿道路行驶1279米",
          "distance": "1422米",
          "duration": "8分钟"
        },
        {
          "instruction": "沿道路行驶1108米",
          "distance": "1705米",
          "duration": "7分钟"
        },
        {
          "instruction": "沿道路行驶1125米",
          "distance": "1664米",
          "duration": "1分钟"
        },
        {
          "instruction": "沿道路行驶1748米",
          "distance": "703米",
          "duration": "4分钟"
        }
      ],
      "origin": "104.092944,30.583432",
      "destination": "104.095574,30.545369"
    },
    {
      "distance": "3564米",
      "duration": "17分钟",
      "steps": [
        {
          "instruction": "沿道路行驶505米",
          "distance": "1336米",
          "duration": "8分钟"
        },
        {
          "instruction": "沿道路行驶1911米",
          "distance": "1716米",
          "duration": "8分钟"
        },
        {
          "instruction": "沿道路行驶1096米",
          "distance": "566米",
          "duration": "4分钟"
        },
        {
          "instruction": "沿道路行驶1090米",
          "distance": "1947米",
          "duration": "5分钟"
        }
      ],
      "origin": "121.450165,31.188519",
      "destination": "121.447687,31.235599"
    },
    {
      "distance": "4241米",
      "duration": "21分钟",
      "steps": [
        {
          "instruction": "沿道路行驶1370米",
          "distance": "735米",
          "duration": "4分钟"
        },
        {
          "instruction": "沿道路行驶1826米",
          "distance": "805米",
          "duration": "5分钟"
        },
        {
          "instruction": "沿道路行驶791米",
          "distance": "646米",
          "duration": "1分钟"
        },
        {
          "instruction": "沿道路行驶839米",
          "distance": "1129米",
          "duration": "5分钟"
        }
      ],
      "origin": "114.015018,22.516442",
      "destination": "114.034355,22.572225"
    },
    {
      "distance": "9199米",
      "duration": "45分钟",
      "steps": [
        {
          "instruction": "沿道路行驶1605米",
          "distance": "1511米",
          "duration": "8分钟"
        },
        {
          "instruction": "沿道路行驶664米",
          "distance": "1724米",
          "duration": "1分钟"
        },
        {
          "instruction": "沿道路行驶1384米",
          "distance": "1160米",
          "duration": "5分钟"
        },
        {
          "instruction": "沿道路行驶552米",
          "distance": "687米",
          "duration": "4分钟"
        }
      ],
      "origin": "114.020335,22.561968",
      "destination": "114.077873,22.587368"
    }
  ],
  "transit_routes_by_address": [
    {
      "distance": "8708米",
      "duration": "43分钟",
      "steps": [
        {
          "instruction": "乘坐地铁，7站",
          "distance": "3668米",
          "duration": "19分钟"
        },
        {
          "instruction": "乘坐公交，5站",
          "distance": "1743米",
          "duration": "18分钟"
        },
        {
          "instruction": "乘坐步行，8站",
          "distance": "4335米",
          "duration": "20分钟"
        }
      ],
      "origin": "成都市武侯区长安街25号",
      "destination": "成都市武侯区长安街10号"
    },
    {
      "distance": "3634米",
      "duration": "18分钟",
      "steps": [
        {
          "instruction": "乘坐地铁，5站",
          "distance": "2686米",
          "duration": "20分钟"
        },
        {
          "instruction": "乘坐公交，5站",
          "distance": "3713米",
          "duration": "17分钟"
        },
        {
          "instruction": "乘坐步行，7站",
          "distance": "1150米",
          "duration": "19分钟"
        }
      ],
      "origin": "北京市海淀区解放路50号",
      "destination": "北京市海淀区解放路1号"
    },
    {
      "distance": "1018米",
      "duration": "5分钟",
      "steps": [
        {
          "instruction": "乘坐地铁，8站",
          "distance": "4560米",
          "duration": "19分钟"
        },
        {
          "instruction": "乘坐公交，6站",
          "distance": "1222米",
          "duration": "11分钟"
        },
        {
          "instruction": "乘坐步行，7站",
          "distance": "2481米",
          "duration": "20分钟"
        }
      ],
      "origin": "北京市海淀区解放路25号",
      "destination": "北京市朝阳区人民路100号"
    },
    {
      "distance": "8178米",
      "duration": "40分钟",
      "steps": [
        {
          "instruction": "乘坐地铁，8站",
          "distance": "2985米",
          "duration": "8分钟"
        },
        {
          "instruction": "乘坐公交，3站",
          "distance": "4986米",
          "duration": "12分钟"
        },
        {
          "instruction": "乘坐步行，8站",
          "distance": "1648米",
          "duration": "14分钟"
        }
      ],
      "origin": "深圳市福田区南京路25号",
      "destination": "深圳市南山区南京路25号"
    },
    {
      "distance": "8560米",
      "duration": "42分钟",
      "steps": [
        {
          "instruction": "乘坐地铁，3站",
          "distance": "3653米",
          "duration": "9分钟"
        },
        {
          "instruction": "乘坐公交，6站",
          "distance": "4820米",
          "duration": "14分钟"
        },
        {
          "instruction": "乘坐步行，7站",
          "distance": "3889米",
          "duration": "13分钟"
        }
      ],
      "origin": "成都市锦江区中山路50号",
      "destination": "成都市锦江区南京路1号"
    }
  ],
  "transit_routes_by_coordinates": [
    {
      "distance": "7284米",
      "duration": "36分钟",
      "steps": [
        {
          "instruction": "乘坐地铁，4站",
          "distance": "4775米",
          "duration": "9分钟"
        },
        {
          "instruction": "乘坐公交，3站",
          "distance": "2131米",
          "duration": "18分钟"
        },
        {
          "instruction": "乘坐步行，5站",
          "distance": "4826米",
          "duration": "13分钟"
        }
      ],
      "origin": "114.091372,22.591124",
      "destination": "114.032273,22.548227"
    },
    {
      "distance": "9022米",
      "duration": "45分钟",
      "steps": [
        {
          "instruction": "乘坐地铁，4站",
          "distance": "2829米",
          "duration": "20分钟"
        },
        {
          "instruction": "乘坐公交，5站",
          "distance": "2361米",
          "duration": "17分钟"
        },
        {
          "instruction": "乘坐步行，6站",
          "distance": "4820米",
          "duration": "15分钟"
        }
      ],
      "origin": "116.375684,39.889156",
      "destination": "116.406094,39.959190"
    },
    {
      "distance": "7730米",
      "duration": "38分钟",
      "steps": [
        {
          "instruction": "乘坐地铁，3站",
          "distance": "2303米",
          "duration": "20分钟"
        },
        {
          "instruction": "乘坐公交，8站",
          "distance": "4741米",
          "duration": "17分钟"
        },
        {
          "instruction": "乘坐步行，6站",
          "distance": "3718米",
          "duration": "9分钟"
        }
      ],
      "origin": "121.521777,31.204281",
      "destination": "121.461997,31.266001"
    },
    {
      "distance": "2644米",
      "duration": "13分钟",
      "steps": [
        {
          "instruction": "乘坐地铁，6站",
          "distance": "1408米",
          "duration": "19分钟"
        },
        {
          "instruction": "乘坐公交，3站",
          "distance": "3959米",
          "duration": "9分钟"
        },
        {
          "instruction": "乘坐步行，6站",
          "distance": "4567米",
          "duration": "9分钟"
        }
      ],
      "origin": "114.104382,22.505725",
      "destination": "114.104435,22.526299"
    },
    {
      "distance": "2315米",
      "duration": "11分钟",
      "steps": [
        {
          "instruction": "乘坐地铁，5站",
          "distance": "4491米",
          "duration": "17分钟"
        },
        {
          "instruction": "乘坐公交，5站",
          "distance": "3567米",
          "duration": "20分钟"
        },
        {
          "instruction": "乘坐步行，7站",
          "distance": "1147米",
          "duration": "7分钟"
        }
      ],
      "origin": "116.394349,39.956220",
      "destination": "116.381256,39.928570"
    }
  ],
  "distance_data": [
    {
      "origins": "121.486816,31.272493;121.523443,31.255077",
      "destination": "121.467097,31.190244",
      "distance": "2646米",
      "duration": "5分钟",
      "type": "0"
    },
    {
      "origins": "114.024536,22.523047;114.010795,22.525537",
      "destination": "114.013512,22.528946",
      "distance": "8056米",
      "duration": "16分钟",
      "type": "0"
    },
    {
      "origins": "121.448120,31.221605;121.491880,31.198406",
      "destination": "121.441207,31.241349",
      "distance": "7267米",
      "duration": "14分钟",
      "type": "0"
    },
    {
      "origins": "104.084813,30.572567;104.074816,30.546019",
      "destination": "104.080290,30.568757",
      "distance": "1153米",
      "duration": "2分钟",
      "type": "0"
    },
    {
      "origins": "114.098021,22.560861;114.023698,22.537273",
      "destination": "114.042457,22.551857",
      "distance": "7951米",
      "duration": "15分钟",
      "type": "0"
    }
  ],
  "text_search_results": [
    {
      "keywords": "商场",
      "city": "广州市",
      "results": [
        {
          "id": "B0FF0000",
          "name": "购物店",
          "type": "购物",
          "address": "广州市越秀区人民路1号",
          "coordinates": "113.238121,23.136292",
          "distance": "1227米"
        },
        {
          "id": "B0FF0001",
          "name": "酒店中心",
          "type": "酒店",
          "address": "广州市海珠区解放路1号",
          "coordinates": "113.312194,23.144923",
          "distance": "612米"
        },
        {
          "id": "B0FF0002",
          "name": "餐饮广场",
          "type": "餐饮",
          "address": "广州市海珠区长安街100号",
          "coordinates": "113.288917,23.162384",
          "distance": "1899米"
        },
        {
          "id": "B0FF0003",
          "name": "酒店大厦",
          "type": "酒店",
          "address": "广州市天河区中山路25号",
          "coordinates": "113.236300,23.098113",
          "distance": "563米"
        },
        {
          "id": "B0FF0004",
          "name": "购物店",
          "type": "购物",
          "address": "广州市海珠区长安街1号",
          "coordinates": "113.245293,23.123182",
          "distance": "1236米"
        },
        {
          "id": "B0FF0005",
          "name": "酒店中心",
          "type": "酒店",
          "address": "广州市海珠区南京路1号",
          "coordinates": "113.305363,23.111772",
          "distance": "900米"
        },
        {
          "id": "B0FF0006",
          "name": "购物广场",
          "type": "购物",
          "address": "广州市天河区南京路100号",
          "coordinates": "113.302046,23.115686",
          "distance": "1077米"
        },
        {
          "id": "B0FF0007",
          "name": "酒店大厦",
          "type": "酒店",
          "address": "广州市天河区解放路50号",
          "coordinates": "113.311138,23.108614",
          "distance": "1832米"
        }
      ],
      "total_count": 9
    },
    {
      "keywords": "餐厅",
      "city": "广州市",
      "results": [
        {
          "id": "B0FF0000",
          "name": "餐饮店",
          "type": "餐饮",
          "address": "广州市天河区南京路50号",
          "coordinates": "113.311127,23.159559",
          "distance": "799米"
        },
        {
          "id": "B0FF0001",
          "name": "餐饮中心",
          "type": "餐饮",
          "address": "广州市越秀区长安街25号",
          "coordinates": "113.268057,23.124579",
          "distance": "1427米"
        },
        {
          "id": "B0FF0002",
          "name": "酒店广场",
          "type": "酒店",
          "address": "广州市海珠区人民路25号",
          "coordinates": "113.225235,23.102482",
          "distance": "101米"
        },
        {
          "id": "B0FF0003",
          "name": "银行大厦",
          "type": "银行",
          "address": "广州市海珠区解放路100号",
          "coordinates": "113.236537,23.085422",
          "distance": "1737米"
        },
        {
          "id": "B0FF0004",
          "name": "景点店",
          "type": "景点",
          "address": "广州市海珠区解放路50号",
          "coordinates": "113.226068,23.083635",
          "distance": "126米"
        },
        {
          "id": "B0FF0005",
          "name": "酒店中心",
          "type": "酒店",
          "address": "广州市越秀区长安街1号",
          "coordinates": "113.237880,23.132855",
          "distance": "845米"
        },
        {
          "id": "B0FF0006",
          "name": "景点广场",
          "type": "景点",
          "address": "广州市越秀区中山路50号",
          "coordinates": "113.273134,23.151760",
          "distance": "1863米"
        },
        {
          "id": "B0FF0007",
          "name": "景点大厦",
          "type": "景点",
          "address": "广州市海珠区长安街50号",
          "coordinates": "113.275965,23.173005",
          "distance": "622米"
        }
      ],
      "total_count": 12
    },
    {
      "keywords": "银行",
      "city": "北京市",
      "results": [
        {
          "id": "B0FF0000",
          "name": "景点店",
          "type": "景点",
          "address": "北京市海淀区南京路25号",
          "coordinates": "116.357335,39.927868",
          "distance": "1165米"
        },
        {
          "id": "B0FF0001",
          "name": "酒店中心",
          "type": "酒店",
          "address": "北京市朝阳区人民路25号",
          "coordinates": "116.366381,39.871516",
          "distance": "1786米"
        },
        {
          "id": "B0FF0002",
          "name": "景点广场",
          "type": "景点",
          "address": "北京市朝阳区南京路100号",
          "coordinates": "116.444509,39.864358",
          "distance": "733米"
        },
        {
          "id": "B0FF0003",
          "name": "购物大厦",
          "type": "购物",
          "address": "北京市朝阳区中山路10号",
          "coordinates": "116.354261,39.935816",
          "distance": "474米"
        },
        {
          "id": "B0FF0004",
          "name": "银行店",
          "type": "银行",
          "address": "北京市朝阳区南京路25号",
          "coordinates": "116.424837,39.938164",
          "distance": "1270米"
        },
        {
          "id": "B0FF0005",
          "name": "餐饮中心",
          "type": "餐饮",
          "address": "北京市海淀区南京路10号",
          "coordinates": "116.401422,39.939151",
          "distance": "275米"
        },
        {
          "id": "B0FF0006",
          "name": "餐饮广场",
          "type": "餐饮",
          "address": "北京市朝阳区长安街25号",
          "coordinates": "116.426398,39.883093",
          "distance": "713米"
        },
        {
          "id": "B0FF0007",
          "name": "餐饮大厦",
          "type": "餐饮",
          "address": "北京市朝阳区解放路1号",
          "coordinates": "116.360076,39.901396",
          "distance": "282米"
        }
      ],
      "total_count": 8
    },
    {
      "keywords": "商场",
      "city": "北京市",
      "results": [
        {
          "id": "B0FF0000",
          "name": "酒店店",
          "type": "酒店",
          "address": "北京市西城区中山路1号",
          "coordinates": "116.392601,39.881455",
          "distance": "1309米"
        },
        {
          "id": "B0FF0001",
          "name": "餐饮中心",
          "type": "餐饮",
          "address": "北京市西城区中山路25号",
          "coordinates": "116.393204,39.955703",
          "distance": "174米"
        },
        {
          "id": "B0FF0002",
          "name": "景点广场",
          "type": "景点",
          "address": "北京市海淀区人民路1号",
          "coordinates": "116.396427,39.950270",
          "distance": "200米"
        },
        {
          "id": "B0FF0003",
          "name": "餐饮大厦",
          "type": "餐饮",
          "address": "北京市海淀区中山路10号",
          "coordinates": "116.353968,39.886802",
          "distance": "1346米"
        },
        {
          "id": "B0FF0004",
          "name": "银行店",
          "type": "银行",
          "address": "北京市西城区解放路50号",
          "coordinates": "116.446863,39.912356",
          "distance": "979米"
        },
        {
          "id": "B0FF0005",
          "name": "银行中心",
          "type": "银行",
          "address": "北京市西城区人民路1号",
          "coordinates": "116.426710,39.870741",
          "distance": "1390米"
        },
        {
          "id": "B0FF0006",
          "name": "银行广场",
          "type": "银行",
          "address": "北京市西城区南京路50号",
          "coordinates": "116.392555,39.882149",
          "distance": "744米"
        },
        {
          "id": "B0FF0007",
          "name": "景点大厦",
          "type": "景点",
          "address": "北京市海淀区人民路1号",
          "coordinates": "116.378655,39.890552",
          "distance": "572米"
        }
      ],
      "total_count": 12
    },
    {
      "keywords": "酒店",
      "city": "广州市",
      "results": [
        {
          "id": "B0FF0000",
          "name": "景点店",
          "type": "景点",
          "address": "广州市天河区长安街1号",
          "coordinates": "113.223723,23.088756",
          "distance": "1563米"
        },
        {
          "id": "B0FF0001",
          "name": "酒店中心",
          "type": "酒店",
          "address": "广州市天河区中山路1号",
          "coordinates": "113.273047,23.135259",
          "distance": "725米"
        },
        {
          "id": "B0FF0002",
          "name": "餐饮广场",
          "type": "餐饮",
          "address": "广州市越秀区解放路50号",
          "coordinates": "113.301209,23.151206",
          "distance": "639米"
        },
        {
          "id": "B0FF0003",
          "name": "银行大厦",
          "type": "银行",
          "address": "广州市越秀区解放路1号",
          "coordinates": "113.272192,23.100374",
          "distance": "1394米"
        },
        {
          "id": "B0FF0004",
          "name": "景点店",
          "type": "景点",
          "address": "广州市天河区长安街25号",
          "coordinates": "113.298937,23.115856",
          "distance": "1611米"
        },
        {
          "id": "B0FF0005",
          "name": "酒店中心",
          "type": "酒店",
          "address": "广州市海珠区南京路50号",
          "coordinates": "113.298916,23.176555",
          "distance": "1726米"
        },
        {
          "id": "B0FF0006",
          "name": "银行广场",
          "type": "银行",
          "address": "广州市海珠区中山路1号",
          "coordinates": "113.275299,23.144883",
          "distance": "1470米"
        },
        {
          "id": "B0FF0007",
          "name": "酒店大厦",
          "type": "酒店",
          "address": "广州市天河区南京路25号",
          "coordinates": "113.284670,23.109998",
          "distance": "745米"
        }
      ],
      "total_count": 15
    }
  ],
  "around_search_results": [
    {
      "keywords": "餐厅",
      "city": "广州市",
      "results": [
        {
          "id": "B0FF0000",
          "name": "购物店",
          "type": "购物",
          "address": "广州市海珠区人民路1号",
          "coordinates": "113.228587,23.142417",
          "distance": "112米"
        },
        {
          "id": "B0FF0001",
          "name": "餐饮中心",
          "type": "餐饮",
          "address": "广州市海珠区中山路10号",
          "coordinates": "113.252019,23.124465",
          "distance": "372米"
        },
        {
          "id": "B0FF0002",
          "name": "酒店广场",
          "type": "酒店",
          "address": "广州市越秀区解放路100号",
          "coordinates": "113.274022,23.167434",
          "distance": "368米"
        },
        {
          "id": "B0FF0003",
          "name": "购物大厦",
          "type": "购物",
          "address": "广州市海珠区长安街1号",
          "coordinates": "113.241610,23.145294",
          "distance": "1044米"
        },
        {
          "id": "B0FF0004",
          "name": "银行店",
          "type": "银行",
          "address": "广州市越秀区人民路25号",
          "coordinates": "113.235957,23.130335",
          "distance": "756米"
        },
        {
          "id": "B0FF0005",
          "name": "景点中心",
          "type": "景点",
          "address": "广州市天河区解放路100号",
          "coordinates": "113.263063,23.145813",
          "distance": "143米"
        },
        {
          "id": "B0FF0006",
          "name": "购物广场",
          "type": "购物",
          "address": "广州市越秀区中山路1号",
          "coordinates": "113.215169,23.109242",
          "distance": "482米"
        }
      ],
      "total_count": 7
    },
    {
      "keywords": "银行",
      "city": "上海市",
      "results": [
        {
          "id": "B0FF0000",
          "name": "酒店店",
          "type": "酒店",
          "address": "上海市黄浦区长安街50号",
          "coordinates": "121.498401,31.197969",
          "distance": "828米"
        },
        {
          "id": "B0FF0001",
          "name": "银行中心",
          "type": "银行",
          "address": "上海市浦东新区南京路100号",
          "coordinates": "121.479572,31.247205",
          "distance": "775米"
        },
        {
          "id": "B0FF0002",
          "name": "餐饮广场",
          "type": "餐饮",
          "address": "上海市徐汇区长安街50号",
          "coordinates": "121.425574,31.272516",
          "distance": "1815米"
        },
        {
          "id": "B0FF0003",
          "name": "酒店大厦",
          "type": "酒店",
          "address": "上海市浦东新区人民路100号",
          "coordinates": "121.464142,31.244414",
          "distance": "642米"
        },
        {
          "id": "B0FF0004",
          "name": "餐饮店",
          "type": "餐饮",
          "address": "上海市徐汇区长安街25号",
          "coordinates": "121.440887,31.275161",
          "distance": "992米"
        },
        {
          "id": "B0FF0005",
          "name": "酒店中心",
          "type": "酒店",
          "address": "上海市黄浦区人民路1号",
          "coordinates": "121.448032,31.239287",
          "distance": "1123米"
        },
        {
          "id": "B0FF0006",
          "name": "餐饮广场",
          "type": "餐饮",
          "address": "上海市徐汇区解放路25号",
          "coordinates": "121.445857,31.258312",
          "distance": "206米"
        },
        {
          "id": "B0FF0007",
          "name": "银行大厦",
          "type": "银行",
          "address": "上海市浦东新区长安街100号",
          "coordinates": "121.474695,31.270992",
          "distance": "765米"
        }
      ],
      "total_count": 9
    },
    {
      "keywords": "酒店",
      "city": "广州市",
      "results": [
        {
          "id": "B0FF0000",
          "name": "餐饮店",
          "type": "餐饮",
          "address": "广州市天河区解放路10号",
          "coordinates": "113.231750,23.094387",
          "distance": "1604米"
        },
        {
          "id": "B0FF0001",
          "name": "餐饮中心",
          "type": "餐饮",
          "address": "广州市天河区人民路50号",
          "coordinates": "113.289845,23.155088",
          "distance": "969米"
        },
        {
          "id": "B0FF0002",
          "name": "银行广场",
          "type": "银行",
          "address": "广州市海珠区中山路25号",
          "coordinates": "113.300825,23.141822",
          "distance": "359米"
        },
        {
          "id": "B0FF0003",
          "name": "景点大厦",
          "type": "景点",
          "address": "广州市天河区人民路50号",
          "coordinates": "113.277539,23.158733",
          "distance": "1261米"
        },
        {
          "id": "B0FF0004",
          "name": "餐饮店",
          "type": "餐饮",
          "address": "广州市越秀区中山路1号",
          "coordinates": "113.245441,23.124291",
          "distance": "166米"
        },
        {
          "id": "B0FF0005",
          "name": "酒店中心",
          "type": "酒店",
          "address": "广州市越秀区长安街1号",
          "coordinates": "113.275901,23.129807",
          "distance": "997米"
        },
        {
          "id": "B0FF0006",
          "name": "银行广场",
          "type": "银行",
          "address": "广州市海珠区长安街50号",
          "coordinates": "113.305305,23.136266",
          "distance": "435米"
        },
        {
          "id": "B0FF0007",
          "name": "酒店大厦",
          "type": "酒店",
          "address": "广州市海珠区人民路100号",
          "coordinates": "113.229486,23.085287",
          "distance": "261米"
        }
      ],
      "total_count": 8
    },
    {
      "keywords": "餐厅",
      "city": "广州市",
      "results": [
        {
          "id": "B0FF0000",
          "name": "购物店",
          "type": "购物",
          "address": "广州市天河区南京路50号",
          "coordinates": "113.313499,23.131507",
          "distance": "1298米"
        },
        {
          "id": "B0FF0001",
          "name": "购物中心",
          "type": "购物",
          "address": "广州市越秀区解放路25号",
          "coordinates": "113.253142,23.156546",
          "distance": "1440米"
        },
        {
          "id": "B0FF0002",
          "name": "银行广场",
          "type": "银行",
          "address": "广州市天河区解放路1号",
          "coordinates": "113.247369,23.134896",
          "distance": "841米"
        },
        {
          "id": "B0FF0003",
          "name": "酒店大厦",
          "type": "酒店",
          "address": "广州市越秀区中山路10号",
          "coordinates": "113.247736,23.137374",
          "distance": "339米"
        },
        {
          "id": "B0FF0004",
          "name": "酒店店",
          "type": "酒店",
          "address": "广州市越秀区人民路10号",
          "coordinates": "113.273904,23.172900",
          "distance": "684米"
        },
        {
          "id": "B0FF0005",
          "name": "银行中心",
          "type": "银行",
          "address": "广州市越秀区解放路10号",
          "coordinates": "113.281412,23.161996",
          "distance": "1563米"
        },
        {
          "id": "B0FF0006",
          "name": "银行广场",
          "type": "银行",
          "address": "广州市天河区人民路100号",
          "coordinates": "113.250583,23.115360",
          "distance": "419米"
        },
        {
          "id": "B0FF0007",
          "name": "购物大厦",
          "type": "购物",
          "address": "广州市越秀区人民路10号",
          "coordinates": "113.237054,23.092857",
          "distance": "208米"
        }
      ],
      "total_count": 13
    },
    {
      "keywords": "餐厅",
      "city": "广州市",
      "results": [
        {
          "id": "B0FF0000",
          "name": "银行店",
          "type": "银行",
          "address": "广州市海珠区中山路1号",
          "coordinates": "113.280593,23.166739",
          "distance": "1315米"
        },
        {
          "id": "B0FF0001",
          "name": "购物中心",
          "type": "购物",
          "address": "广州市海珠区人民路10号",
          "coordinates": "113.230625,23.162235",
          "distance": "1629米"
        },
        {
          "id": "B0FF0002",
          "name": "银行广场",
          "type": "银行",
          "address": "广州市天河区人民路1号",
          "coordinates": "113.255486,23.146736",
          "distance": "536米"
        },
        {
          "id": "B0FF0003",
          "name": "景点大厦",
          "type": "景点",
          "address": "广州市海珠区解放路50号",
          "coordinates": "113.237800,23.103017",
          "distance": "1706米"
        },
        {
          "id": "B0FF0004",
          "name": "景点店",
          "type": "景点",
          "address": "广州市天河区解放路100号",
          "coordinates": "113.312844,23.125268",
          "distance": "627米"
        },
        {
          "id": "B0FF0005",
          "name": "景点中心",
          "type": "景点",
          "address": "广州市海珠区中山路50号",
          "coordinates": "113.311027,23.160789",
          "distance": "1690米"
        },
        {
          "id": "B0FF0006",
          "name": "银行广场",
          "type": "银行",
          "address": "广州市天河区解放路1号",
          "coordinates": "113.278518,23.166512",
          "distance": "1185米"
        },
        {
          "id": "B0FF0007",
          "name": "餐饮大厦",
          "type": "餐饮",
          "address": "广州市海珠区中山路1号",
          "coordinates": "113.242906,23.155412",
          "distance": "608米"
        }
      ],
      "total_count": 13
    }
  ],
  "poi_details": [
    {
      "id": "B0FF1234",
      "name": "银行中心",
      "type": "银行",
      "address": "深圳市福田区人民路1号",
      "coordinates": "114.102541,22.515304",
      "rating": 3.9,
      "business_hours": "09:00-22:00"
    },
    {
      "id": "B0FF1234",
      "name": "餐饮中心",
      "type": "餐饮",
      "address": "广州市越秀区长安街50号",
      "coordinates": "113.264601,23.102678",
      "rating": 5.0,
      "business_hours": "09:00-22:00"
    },
    {
      "id": "B0FF1234",
      "name": "购物中心",
      "type": "购物",
      "address": "广州市天河区解放路1号",
      "coordinates": "113.298318,23.144096",
      "rating": 4.6,
      "business_hours": "09:00-22:00"
    },
    {
      "id": "B0FF1234",
      "name": "餐饮中心",
      "type": "餐饮",
      "address": "上海市徐汇区人民路10号",
      "coordinates": "121.499584,31.227311",
      "rating": 4.2,
      "business_hours": "09:00-22:00"
    },
    {
      "id": "B0FF1234",
      "name": "餐饮中心",
      "type": "餐饮",
      "address": "北京市海淀区南京路10号",
      "coordinates": "116.402280,39.932023",
      "rating": 4.1,
      "business_hours": "09:00-22:00"
    },
    {
      "id": "B0FF1234",
      "name": "酒店中心",
      "type": "酒店",
      "address": "北京市朝阳区解放路1号",
      "coordinates": "116.352175,39.901283",
      "rating": 4.6,
      "business_hours": "09:00-22:00"
    },
    {
      "id": "B0FF1234",
      "name": "餐饮中心",
      "type": "餐饮",
      "address": "深圳市福田区人民路100号",
      "coordinates": "114.061505,22.556295",
      "rating": 4.2,
      "business_hours": "09:00-22:00"
    },
    {
      "id": "B0FF1234",
      "name": "酒店中心",
      "type": "酒店",
      "address": "上海市徐汇区长安街100号",
      "coordinates": "121.458982,31.237466",
      "rating": 3.4,
      "business_hours": "09:00-22:00"
    },
    {
      "id": "B0FF1234",
      "name": "银行中心",
      "type": "银行",
      "address": "北京市海淀区长安街100号",
      "coordinates": "116.401808,39.937941",
      "rating": 4.0,
      "business_hours": "09:00-22:00"
    },
    {
      "id": "B0FF1234",
      "name": "景点中心",
      "type": "景点",
      "address": "北京市海淀区长安街50号",
      "coordinates": "116.445504,39.884665",
      "rating": 3.0,
      "business_hours": "09:00-22:00"
    }
  ]
}